$GPRMC,101139.204,A,5540.8369,N,1235.1997,E,0.25,89.64,290311,A*,Temp,14.6,Light,722,Mov,460,co2,484
$GPRMC,101146.204,A,5540.8381,N,1235.1966,E,0.06,12.96,290311,A*,Temp,15.4,Light,715,Mov,478,co2,478
$GPRMC,101153.203,A,5540.838,N,1235.2026,E,0,150.97,290311,A*,Temp,15.7,Light,669,Mov,253,co2,481
$GPRMC,101200.203,A,5540.8373,N,1235.194,E,1.59,277.11,290311,A*,Temp,15.8,Light,733,Mov,333,co2,482
$GPRMC,101207.203,A,5540.8374,N,1235.1995,E,0.25,283.38,290311,A*,Temp,16.3,Light,730,Mov,446,co2,484
$GPRMC,101214.203,A,5540.8373,N,1235.198,E,0.49,282.44,290311,A*,Temp,16.7,Light,722,Mov,392,co2,483
$GPRMC,101221.203,A,5540.8401,N,1235.1509,E,0.36,119.42,290311,A*,Temp,17.2,Light,725,Mov,455,co2,489
$GPRMC,101228,A,5540.8396,N,1235.1549,E,0.89,114.06,290311,A*,Temp,17,Light,740,Mov,485,co2,489
$GPRMC,101235,A,5540.8399,N,1235.1555,E,0.24,319.41,290311,A*,Temp,17.2,Light,738,Mov,492,co2,489
$GPRMC,101249,A,5540.8388,N,1235.1605,E,0.19,346.38,290311,A*,Temp,16.1,Light,742,Mov,500,co2,489
$GPRMC,101256,A,5540.8396,N,1235.1573,E,0.8,262.59,290311,A*,Temp,16.1,Light,504,Mov,0,co2,484
$GPRMC,101303,A,5540.838,N,1235.166,E,1.59,119.55,290311,A*,Temp,15.8,Light,505,Mov,0,co2,477
$GPRMC,101310,A,5540.8398,N,1235.1524,E,4.58,289.22,290311,A*,Temp,15.8,Light,534,Mov,0,co2,481
$GPRMC,101317,A,5540.8406,N,1235.1528,E,1.5,307.31,290311,A*,Temp,14.4,Light,406,Mov,286,co2,482
$GPRMC,101324,A,5540.8432,N,1235.1569,E,0.06,172.24,290311,A*,Temp,13,Light,509,Mov,165,co2,484
$GPRMC,101331,A,5540.8461,N,1235.1577,E,1.26,323.07,290311,A*,Temp,11.5,Light,527,Mov,0,co2,488
$GPRMC,101338,A,5540.8511,N,1235.1162,E,7.29,285.8,290311,A*,Temp,11.4,Light,720,Mov,1,co2,485
$GPRMC,101345,A,5540.8487,N,1235.1089,E,2.07,240.86,290311,A*,Temp,11.4,Light,732,Mov,0,co2,480
$GPRMC,101352,A,5540.8442,N,1235.1258,E,1.33,154.2,290311,A*,Temp,10.8,Light,739,Mov,0,co2,475
$GPRMC,101359,A,5540.8339,N,1235.1363,E,2.91,169.53,290311,A*,Temp,10.4,Light,558,Mov,1,co2,481
$GPRMC,101406,A,5540.8343,N,1235.1285,E,1.71,287.42,290311,A*,Temp,10.4,Light,556,Mov,1,co2,480
$GPRMC,101413,A,5540.8305,N,1235.119,E,2.21,238.08,290311,A*,Temp,10.8,Light,568,Mov,197,co2,471
$GPRMC,101420,A,5540.8251,N,1235.1229,E,2.51,178.32,290311,A*,Temp,11.1,Light,554,Mov,0,co2,478
$GPRMC,101434,A,5540.8171,N,1235.1246,E,0.72,174.3,290311,A*,Temp,11.5,Light,723,Mov,0,co2,485
$GPRMC,101441,A,5540.8144,N,1235.131,E,3.02,119.48,290311,A*,Temp,11.5,Light,715,Mov,0,co2,480
$GPRMC,101448,A,5540.8135,N,1235.1402,E,2.15,63.27,290311,A**,Temp,11.9,Light,755,Mov,0,co2,484
$GPRMC,101455,A,5540.8143,N,1235.1495,E,2.6,99.68,290311,A**,Temp,11.9,Light,744,Mov,1,co2,488
$GPRMC,101502,A,5540.8163,N,1235.158,E,2.86,85,290311,A**,Temp,11.4,Light,722,Mov,0,co2,483
$GPRMC,101509,A,5540.8197,N,1235.1585,E,3.72,12.74,290311,A**,Temp,11.5,Light,568,Mov,4,co2,479
$GPRMC,101516,A,5540.825,N,1235.1637,E,2.26,27.54,290311,A**,Temp,11.2,Light,500,Mov,0,co2,486
$GPRMC,101522,A,5540.8284,N,1235.1686,E,2.67,348.62,290311,A*,Temp,10.8,Light,507,Mov,178,co2,485
$GPRMC,101529,A,5540.8362,N,1235.1591,E,2.75,346.41,290311,A*,Temp,10.8,Light,509,Mov,0,co2,482
$GPRMC,101536,A,5540.84,N,1235.1611,E,1.13,0.72,290311,A*A*,Temp,10.5,Light,536,Mov,1,co2,482
$GPRMC,101543,A,5540.8434,N,1235.1632,E,2.62,29.95,290311,A**,Temp,10.4,Light,712,Mov,1,co2,486
$GPRMC,101550,A,5540.8477,N,1235.1654,E,2.47,44.3,290311,A**,Temp,10.7,Light,714,Mov,1,co2,481
$GPRMC,101557,A,5540.8439,N,1235.1619,E,2.89,167.76,290311,E*,Temp,10.8,Light,729,Mov,2,co2,487
$GPRMC,101602,A,5540.8458,N,1235.1397,E,5.74,273.67,290311,A*,Temp,10.6,Light,718,Mov,0,co2,484
$GPRMC,101609,A,5540.8417,N,1235.1455,E,1.37,201.54,290311,A*,Temp,10,Light,618,Mov,0,co2,486
$GPRMC,101616,A,5540.8419,N,1235.142,E,0.69,145.99,290311,A*,Temp,9.8,Light,639,Mov,0,co2,482
$GPRMC,101623,A,5540.838,N,1235.1402,E,1,191.74,290311,A*,Temp,10.5,Light,693,Mov,1,co2,487
$GPRMC,101630,A,5540.8326,N,1235.1334,E,3.1,240.51,290311,A*,Temp,11.2,Light,758,Mov,1,co2,489
$GPRMC,101637,A,5540.8303,N,1235.1213,E,2.37,247.11,290311,A*,Temp,11.6,Light,774,Mov,1,co2,489
$GPRMC,101644,A,5540.8264,N,1235.121,E,1.04,245.96,290311,A*,Temp,11.8,Light,772,Mov,350,co2,490
$GPRMC,101651,A,5540.8223,N,1235.1156,E,2.36,249.63,290311,A*,Temp,12.2,Light,757,Mov,1,co2,491
$GPRMC,101658,A,5540.8176,N,1235.1122,E,1.93,217.42,290311,A*,Temp,12.1,Light,738,Mov,1,co2,493
$GPRMC,101705,A,5540.8145,N,1235.1182,E,0.55,136.75,290311,A*,Temp,11.9,Light,567,Mov,0,co2,492
$GPRMC,101712,A,5540.8117,N,1235.1313,E,2.77,106.14,290311,A*,Temp,11.3,Light,566,Mov,0,co2,494
$GPRMC,101719,A,5540.8107,N,1235.1419,E,0.41,212.17,290311,A*,Temp,11.3,Light,571,Mov,191,co2,496
$GPRMC,101726,A,5540.8143,N,1235.1502,E,0.68,73.41,290311,A**,Temp,10.7,Light,632,Mov,0,co2,492
$GPRMC,101740,A,5540.8242,N,1235.1746,E,2.87,58.31,290311,A*,Temp,10.4,Light,673,Mov,1,co2,492
$GPRMC,101747,A,5540.8286,N,1235.1807,E,3.33,38.11,290311,A*,Temp,10.5,Light,670,Mov,249,co2,495
$GPRMC,101754,A,5540.8319,N,1235.1822,E,2.22,350.02,290311,A*,Temp,10.5,Light,661,Mov,0,co2,489
$GPRMC,101801,A,5540.8362,N,1235.1809,E,3.23,7.85,290311,A*A*,Temp,10.5,Light,583,Mov,0,co2,491
$GPRMC,101810,A,5540.8426,N,1235.1805,E,1.95,339.96,290311,A*,Temp,10.5,Light,591,Mov,208,co2,485
$GPRMC,101817,A,5540.8477,N,1235.1782,E,3.38,332.89,290311,A*,Temp,9.7,Light,576,Mov,0,co2,481
$GPRMC,101824,A,5540.8527,N,1235.1703,E,3.69,310.48,290311,A*,Temp,10.1,Light,666,Mov,0,co2,478
$GPRMC,101838,A,5540.8478,N,1235.1509,E,1.39,297.73,290311,A*,Temp,10.9,Light,728,Mov,278,co2,489
$GPRMC,101845,A,5540.8454,N,1235.1424,E,1.97,235.01,290311,A*,Temp,11.1,Light,733,Mov,0,co2,483
$GPRMC,101852,A,5540.8429,N,1235.1359,E,2.54,238.96,290311,A*,Temp,10.6,Light,740,Mov,1,co2,487
$GPRMC,101859,A,5540.8401,N,1235.1285,E,2.26,219.95,290311,A*,Temp,10.1,Light,725,Mov,261,co2,488
$GPRMC,101906,A,5540.8362,N,1235.1232,E,2.24,220.37,290311,A*,Temp,10.1,Light,718,Mov,281,co2,486
$GPRMC,101913,A,5540.8298,N,1235.1209,E,3.19,195.54,290311,A*,Temp,10.2,Light,719,Mov,0,co2,482
$GPRMC,101920,A,5540.8224,N,1235.1207,E,2.71,180.67,290311,A*,Temp,10.2,Light,690,Mov,1,co2,483
$GPRMC,101927,A,5540.8193,N,1235.1197,E,2.26,202.97,290311,A*,Temp,10.4,Light,688,Mov,310,co2,482
$GPRMC,101934,A,5540.8163,N,1235.118,E,1.21,216.16,290311,A*,Temp,10.5,Light,614,Mov,0,co2,481
$GPRMC,101941,A,5540.817,N,1235.1116,E,1.21,313.86,290311,A*,Temp,10.2,Light,519,Mov,1,co2,484
$GPRMC,101948,A,5540.8249,N,1235.1154,E,2.54,16.19,290311,A**,Temp,10.5,Light,563,Mov,0,co2,478
$GPRMC,101955,A,5540.8292,N,1235.1152,E,1.15,47.49,290311,A**,Temp,10.5,Light,549,Mov,0,co2,484
$GPRMC,102002,A,5540.8344,N,1235.1186,E,1.9,329.94,290311,A*,Temp,9.9,Light,595,Mov,0,co2,485
$GPRMC,102009,A,5540.8425,N,1235.1225,E,2.05,34.12,290311,A**,Temp,9.6,Light,585,Mov,0,co2,478
$GPRMC,102016,A,5540.8476,N,1235.1287,E,2.38,46.25,290311,A**,Temp,9.7,Light,612,Mov,1,co2,485
$GPRMC,102022,A,5540.8506,N,1235.1351,E,3.04,43.84,290311,A**,Temp,10.1,Light,611,Mov,214,co2,480
$GPRMC,102029,A,5540.8523,N,1235.1418,E,2.73,62.92,290311,A**,Temp,10.3,Light,639,Mov,0,co2,483
$GPRMC,102036,A,5540.8535,N,1235.1487,E,2.46,77.15,290311,A**,Temp,10,Light,605,Mov,262,co2,479
$GPRMC,102043,A,5540.8545,N,1235.1613,E,2.44,73.93,290311,A**,Temp,10.2,Light,623,Mov,247,co2,480
$GPRMC,102057,A,5540.8498,N,1235.1774,E,2.56,173.1,290311,A*,Temp,10.5,Light,628,Mov,1,co2,482
$GPRMC,102104,A,5540.8443,N,1235.183,E,2.4,166.24,290311,A*,Temp,10.4,Light,644,Mov,216,co2,482
$GPRMC,102111,A,5540.8406,N,1235.1847,E,2.27,150.97,290311,A*,Temp,10.4,Light,651,Mov,223,co2,485
$GPRMC,102118,A,5540.8418,N,1235.1801,E,2.19,357.15,290311,A*,Temp,10.2,Light,576,Mov,0,co2,486
$GPRMC,102125,A,5540.8422,N,1235.1799,E,0.35,89.33,290311,A**,Temp,10.3,Light,547,Mov,1,co2,483
$GPRMC,102132,A,5540.8427,N,1235.1828,E,0.57,43.82,290311,A**,Temp,10.3,Light,592,Mov,0,co2,487
$GPRMC,102139,A,5540.8436,N,1235.1841,E,0.67,338.34,290311,A*,Temp,10.2,Light,556,Mov,1,co2,484
$GPRMC,102146,A,5540.8419,N,1235.1804,E,1.09,174.87,290311,A*,Temp,9.8,Light,614,Mov,214,co2,482
$GPRMC,102153,A,5540.8386,N,1235.1802,E,0.55,327.16,290311,A*,Temp,9.9,Light,653,Mov,0,co2,480
$GPRMC,102200,A,5540.8383,N,1235.1811,E,0.29,110.95,290311,A*,Temp,10,Light,635,Mov,2,co2,485
$GPRMC,102207,A,5540.8415,N,1235.1824,E,0.58,267.72,290311,A*,Temp,10.2,Light,663,Mov,2,co2,484
$GPRMC,102214,A,5540.8384,N,1235.1847,E,2.38,173.96,290311,A*,Temp,9.7,Light,654,Mov,1,co2,485
$GPRMC,102221,A,5540.8362,N,1235.1859,E,2.81,206.4,290311,A*,Temp,9.5,Light,642,Mov,4,co2,478
$GPRMC,102227,A,5540.8279,N,1235.1865,E,4.61,176.06,290311,A*,Temp,9.3,Light,669,Mov,1,co2,486
$GPRMC,102234,A,5540.8236,N,1235.1831,E,2.94,198.26,290311,A*,Temp,9,Light,602,Mov,195,co2,484
$GPRMC,102241,A,5540.8189,N,1235.1782,E,1.89,222.58,290311,A*,Temp,9.2,Light,647,Mov,3,co2,483
$GPRMC,102247,A,5540.8162,N,1235.1738,E,2.75,217,290311,A*,Temp,9.4,Light,633,Mov,0,co2,478
$GPRMC,102254,A,5540.8127,N,1235.1682,E,1.49,215.53,290311,A*,Temp,9.5,Light,662,Mov,0,co2,484
$GPRMC,102301,A,5540.8108,N,1235.1672,E,1.27,188.14,290311,A*,Temp,9.5,Light,665,Mov,0,co2,479
$GPRMC,102307,A,5540.8114,N,1235.1752,E,1.85,68.78,290311,A**,Temp,9.1,Light,681,Mov,238,co2,480
$GPRMC,102314,A,5540.8167,N,1235.1789,E,2.19,41.46,290311,A**,Temp,9.1,Light,680,Mov,233,co2,485
$GPRMC,102321,A,5540.8203,N,1235.1847,E,1.46,29.66,290311,A**,Temp,9.2,Light,680,Mov,2,co2,486
$GPRMC,102327,A,5540.8249,N,1235.1895,E,2.72,27.63,290311,A**,Temp,9.2,Light,584,Mov,2,co2,489
$GPRMC,102334,A,5540.8292,N,1235.1919,E,2.63,22.37,290311,A**,Temp,9.3,Light,608,Mov,220,co2,481
$GPRMC,102341,A,5540.8335,N,1235.1923,E,2.41,6.19,290311,A***,Temp,9.4,Light,569,Mov,2,co2,484
$GPRMC,102347,A,5540.8356,N,1235.1932,E,2.93,346.91,290311,A*,Temp,9.6,Light,570,Mov,253,co2,481
$GPRMC,102354,A,5540.8412,N,1235.1923,E,1.67,353.13,290311,A*,Temp,9.5,Light,582,Mov,190,co2,483
$GPRMC,102401,A,5540.8455,N,1235.1908,E,1.38,347.26,290311,A*,Temp,9.4,Light,594,Mov,199,co2,488
$GPRMC,102407,A,5540.8492,N,1235.1891,E,3.43,332.12,290311,A*,Temp,9.4,Light,584,Mov,232,co2,487
$GPRMC,102414,A,5540.8563,N,1235.1837,E,1.8,358.27,290311,A*,Temp,9.3,Light,607,Mov,0,co2,480
$GPRMC,102421,A,5540.8612,N,1235.1764,E,2.09,324.88,290311,A*,Temp,8.8,Light,603,Mov,0,co2,487
$GPRMC,102428,A,5540.8647,N,1235.1707,E,1.99,314.31,290311,A*,Temp,9.3,Light,608,Mov,1,co2,485
$GPRMC,102435,A,5540.8639,N,1235.1651,E,1.88,185.83,290311,A*,Temp,9.4,Light,714,Mov,1,co2,489
$GPRMC,102442,A,5540.8609,N,1235.1764,E,1.28,168.34,290311,A*,Temp,9.6,Light,684,Mov,1,co2,485
$GPRMC,102449,A,5540.8579,N,1235.1808,E,2.32,141.57,290311,A*,Temp,9.4,Light,674,Mov,1,co2,486
$GPRMC,102456,A,5540.8594,N,1235.1747,E,2.69,320.77,290311,A*,Temp,9.2,Light,616,Mov,227,co2,490
$GPRMC,102503,A,5540.8655,N,1235.1654,E,2.36,328.57,290311,A*,Temp,9.3,Light,633,Mov,208,co2,484
$GPRMC,102510,A,5540.8671,N,1235.1541,E,3.48,299.01,290311,A*,Temp,9.5,Light,655,Mov,3,co2,491
$GPRMC,102517,A,5540.867,N,1235.1418,E,2.16,298.74,290311,A*,Temp,9.7,Light,651,Mov,0,co2,484
$GPRMC,102524,A,5540.8692,N,1235.1343,E,1.9,338.49,290311,A*,Temp,9.7,Light,620,Mov,213,co2,493
$GPRMC,102531,A,5540.8709,N,1235.134,E,2.14,230.78,290311,A*,Temp,9.6,Light,697,Mov,0,co2,493
$GPRMC,102537,A,5540.8726,N,1235.131,E,1.12,15.09,290311,A**,Temp,9.7,Light,640,Mov,0,co2,490
$GPRMC,102544,A,5540.8756,N,1235.1286,E,1.04,321.11,290311,A*,Temp,9.6,Light,691,Mov,0,co2,492
$GPRMC,102551,A,5540.8738,N,1235.1207,E,2.3,280.74,290311,A*,Temp,9.8,Light,634,Mov,4,co2,488
$GPRMC,102557,A,5540.8761,N,1235.1166,E,0.96,314.54,290311,A*,Temp,10.3,Light,706,Mov,1,co2,493
$GPRMC,102604,A,5540.8724,N,1235.1147,E,1.04,179.84,290311,A*,Temp,10.2,Light,675,Mov,0,co2,492
$GPRMC,102611,A,5540.8664,N,1235.1098,E,2.19,136.8,290311,A*,Temp,9.9,Light,719,Mov,0,co2,490
$GPRMC,102617,A,5540.8649,N,1235.1144,E,1.69,264,290311,A*,Temp,10,Light,679,Mov,0,co2,492
$GPRMC,102624,A,5540.8625,N,1235.1044,E,1.76,254.77,290311,A*,Temp,10.2,Light,685,Mov,0,co2,488
$GPRMC,102631,A,5540.8622,N,1235.1115,E,2.65,80.74,290311,A**,Temp,10.3,Light,725,Mov,0,co2,491
$GPRMC,102638,A,5540.8634,N,1235.123,E,1.59,101.53,290311,A*,Temp,10.5,Light,731,Mov,301,co2,493
$GPRMC,102645,A,5540.8626,N,1235.1337,E,2.71,115.57,290311,A*,Temp,10.5,Light,731,Mov,0,co2,495
$GPRMC,102652,A,5540.859,N,1235.1464,E,3.45,94.77,290311,A**,Temp,10.4,Light,728,Mov,2,co2,496
$GPRMC,102659,A,5540.8627,N,1235.16,E,1.67,74.32,290311,A**,Temp,10.3,Light,722,Mov,261,co2,495
$GPRMC,102706,A,5540.8605,N,1235.1693,E,4.01,145.68,290311,A*,Temp,10.1,Light,719,Mov,0,co2,488
$GPRMC,102712,A,5540.8563,N,1235.1746,E,0.87,162.91,290311,A*,Temp,9.9,Light,659,Mov,0,co2,491
$GPRMC,102719,A,5540.8615,N,1235.1639,E,4,345.03,290311,A*,Temp,9.7,Light,663,Mov,1,co2,497
$GPRMC,102726,A,5540.8616,N,1235.1505,E,2.57,276.06,290311,A*,Temp,9.7,Light,700,Mov,3,co2,497
$GPRMC,102733,A,5540.8588,N,1235.141,E,2.75,237.4,290311,E*,Temp,9.8,Light,702,Mov,1,co2,494
$GPRMC,102738,A,5540.8568,N,1235.1353,E,2.75,237.4,290311,E*,Temp,10.1,Light,710,Mov,0,co2,491
$GPRMC,102743,A,5540.8547,N,1235.1296,E,2.75,237.4,290311,E*,Temp,10.3,Light,715,Mov,235,co2,496
$GPRMC,102753,A,5540.8917,N,1235.139,E,5.97,16.36,290311,A**,Temp,10.8,Light,719,Mov,266,co2,498
$GPRMC,102800,A,5540.8688,N,1235.123,E,1.5,146.63,290311,A*,Temp,11.1,Light,751,Mov,2,co2,498
$GPRMC,102807,A,5540.8646,N,1235.1191,E,0.97,153.53,290311,E*,Temp,11.5,Light,773,Mov,4,co2,496
$GPRMC,102812,A,5540.8563,N,1235.115,E,1.11,311.05,290311,A*,Temp,12.4,Light,756,Mov,0,co2,502
$GPRMC,102819,A,5540.8589,N,1235.1209,E,4.11,73.67,290311,A**,Temp,13,Light,755,Mov,312,co2,498
$GPRMC,102826,A,5540.8621,N,1235.1261,E,0.74,50.99,290311,A**,Temp,13.6,Light,779,Mov,1,co2,497
$GPRMC,102833,A,5540.8558,N,1235.1236,E,5.23,178.09,290311,A*,Temp,14,Light,796,Mov,270,co2,498
$GPRMC,102840,A,5540.8484,N,1235.1308,E,3.67,161.11,290311,A*,Temp,12.9,Light,790,Mov,296,co2,492
$GPRMC,102847,A,5540.8476,N,1235.144,E,2.3,105.92,290311,E*,Temp,12.4,Light,694,Mov,4,co2,493
$GPRMC,102852,A,5540.8684,N,1235.1652,E,10.94,48.22,290311,A*,Temp,11.5,Light,699,Mov,0,co2,497
$GPRMC,102859,A,5540.8707,N,1235.1506,E,4.51,305.56,290311,A*,Temp,11.1,Light,687,Mov,231,co2,498
$GPRMC,102906,A,5540.8595,N,1235.1312,E,4.19,234.59,290311,A*,Temp,10.4,Light,690,Mov,0,co2,500
$GPRMC,102913,A,5540.8503,N,1235.1035,E,4.15,249.52,290311,A*,Temp,10.5,Light,689,Mov,238,co2,505
$GPRMC,102920,A,5540.8493,N,1235.0957,E,1.48,239.29,290311,A*,Temp,9.9,Light,677,Mov,264,co2,499
$GPRMC,102927,A,5540.8479,N,1235.0913,E,1.48,239.29,290311,E*,Temp,10,Light,697,Mov,0,co2,499
$GPRMC,102932,A,5540.8453,N,1235.0797,E,1.3,169.25,290311,A*,Temp,10.6,Light,689,Mov,1,co2,503
$GPRMC,102939,A,5540.8508,N,1235.089,E,2.79,67.69,290311,A**,Temp,11.2,Light,670,Mov,4,co2,500
$GPRMC,102946,A,5540.8533,N,1235.1072,E,3.63,82.78,290311,A**,Temp,11.1,Light,670,Mov,235,co2,502
$GPRMC,102953,A,5540.8531,N,1235.1238,E,1.91,108.69,290311,A*,Temp,11.4,Light,663,Mov,256,co2,497
$GPRMC,103000,A,5540.8513,N,1235.1364,E,3.97,130.82,290311,A*,Temp,10.6,Light,672,Mov,2,co2,505
$GPRMC,103007,A,5540.8484,N,1235.1384,E,1.28,157.42,290311,E*,Temp,10.5,Light,698,Mov,0,co2,503
$GPRMC,103012,A,5540.8228,N,1235.0788,E,21.13,230.63,290311,A*,Temp,10.2,Light,697,Mov,248,co2,497
$GPRMC,103019,A,5540.7967,N,1235.0227,E,21.13,230.63,290311,E*,Temp,10.3,Light,705,Mov,4,co2,502
$GPRMC,103024,A,5540.7766,N,1235.0309,E,16.22,204.34,290311,E*,Temp,9.7,Light,703,Mov,284,co2,505
$GPRMC,103029,A,5540.7758,N,1235.0697,E,10.05,167.69,290311,A*,Temp,9.8,Light,708,Mov,251,co2,502
$GPRMC,103036,A,5540.7844,N,1235.071,E,1.85,163.32,290311,A**,Temp,9.9,Light,664,Mov,4,co2,503
$GPRMC,103043,A,5540.8323,N,1235.105,E,3.72,68.78,290311,A***,Temp,10.1,Light,670,Mov,229,co2,506
$GPRMC,103050,A,5540.8424,N,1235.1198,E,3.87,40.39,290311,A***,Temp,10.1,Light,668,Mov,4,co2,500
$GPRMC,103057,A,5540.8469,N,1235.1283,E,3.35,96.64,290311,A***,Temp,10,Light,662,Mov,230,co2,500
$GPRMC,103104,A,5540.853,N,1235.133,E,5.9,4.17,290311,A****,Temp,9.5,Light,681,Mov,320,co2,502
$GPRMC,103111,A,5540.8465,N,1235.1104,E,6.62,244.83,290311,A**,Temp,9.5,Light,701,Mov,4,co2,501
$GPRMC,103118,A,5540.8257,N,1235.0963,E,7.99,215.14,290311,A**,Temp,9.8,Light,708,Mov,0,co2,500
$GPRMC,103125,A,5540.8406,N,1235.0987,E,2.97,333.93,290311,A**,Temp,10.2,Light,680,Mov,259,co2,502
$GPRMC,103132,A,5540.8387,N,1235.1064,E,2.33,88.34,290311,A***,Temp,10.1,Light,660,Mov,4,co2,501
$GPRMC,103139,A,5540.8426,N,1235.1152,E,3.18,56.91,290311,A***,Temp,10.4,Light,660,Mov,219,co2,500
$GPRMC,103146,A,5540.8426,N,1235.1182,E,0.92,192.92,290311,A**,Temp,10.4,Light,671,Mov,257,co2,497
$GPRMC,103153,A,5540.8582,N,1235.1288,E,9.34,357.85,290311,A**,Temp,10.5,Light,700,Mov,2,co2,501
$GPRMC,103200,A,5540.8468,N,1235.1102,E,1.73,182.43,290311,A**,Temp,10.5,Light,691,Mov,0,co2,497
$GPRMC,103207,A,5540.8325,N,1235.1058,E,1.88,83.29,290311,A***,Temp,10.8,Light,641,Mov,4,co2,499
$GPRMC,103214,A,5540.8366,N,1235.1181,E,3.44,49.2,290311,A***,Temp,10.7,Light,680,Mov,4,co2,504
$GPRMC,103221,A,5540.8368,N,1235.1171,E,1.32,324.23,290311,A**,Temp,10.5,Light,692,Mov,4,co2,504
$GPRMC,103228,A,5540.8232,N,1235.1085,E,3.02,137.87,290311,A**,Temp,10.8,Light,658,Mov,0,co2,502
$GPRMC,103235,A,5540.8211,N,1235.1099,E,0.57,21.66,290311,A***,Temp,10.7,Light,680,Mov,2,co2,506
$GPRMC,103242,A,5540.8161,N,1235.119,E,4.09,142.46,290311,A**,Temp,10.7,Light,670,Mov,0,co2,510
$GPRMC,103249,A,5540.8102,N,1235.1147,E,2.41,171.72,290311,A**,Temp,10.7,Light,676,Mov,1,co2,504
$GPRMC,103256,A,5540.8047,N,1235.1165,E,3.2,189.69,290311,A**,Temp,10.9,Light,639,Mov,0,co2,498
$GPRMC,103303,A,5540.8052,N,1235.1244,E,3.65,77.4,290311,E***,Temp,10.8,Light,645,Mov,0,co2,496
$GPRMC,103308,A,5540.8063,N,1235.1331,E,3.65,77.4,290311,E***,Temp,10.6,Light,650,Mov,0,co2,498
$GPRMC,103313,A,5540.8074,N,1235.1419,E,3.65,77.4,290311,E***,Temp,10.4,Light,645,Mov,0,co2,498
$GPRMC,103318,A,5540.7922,N,1235.1231,E,1.16,95.75,290311,A***,Temp,10.1,Light,646,Mov,0,co2,501
$GPRMC,103325,A,5540.7945,N,1235.1229,E,2.84,3.94,290311,E****,Temp,10.1,Light,637,Mov,221,co2,502
$GPRMC,103330,A,5540.7958,N,1235.1466,E,5.51,43.67,290311,A***,Temp,10.4,Light,636,Mov,276,co2,501
$GPRMC,103337,A,5540.8043,N,1235.1622,E,5.09,36.34,290311,A***,Temp,10.1,Light,622,Mov,0,co2,501
$GPRMC,103344,A,5540.8114,N,1235.1675,E,3.11,32.5,290311,A***,Temp,10.1,Light,638,Mov,264,co2,498
$GPRMC,103351,A,5540.8005,N,1235.1702,E,3.71,162.89,290311,A**,Temp,10.2,Light,640,Mov,2,co2,500
$GPRMC,103358,A,5540.7916,N,1235.1737,E,3.54,153.19,290311,A**,Temp,10.5,Light,646,Mov,0,co2,498
$GPRMC,103405,A,5540.7991,N,1235.1816,E,2.72,54.56,290311,A***,Temp,10.5,Light,643,Mov,2,co2,507
$GPRMC,103412,A,5540.8006,N,1235.1883,E,0.94,332.77,290311,A**,Temp,10,Light,676,Mov,2,co2,507
$GPRMC,103419,A,5540.8027,N,1235.1834,E,4.14,263.08,290311,A**,Temp,9.9,Light,678,Mov,0,co2,508
$GPRMC,103426,A,5540.7995,N,1235.164,E,4.07,215.52,290311,A**,Temp,9.9,Light,624,Mov,2,co2,506
$GPRMC,103433,A,5540.7926,N,1235.1662,E,2.31,84.83,290311,A***,Temp,9.9,Light,644,Mov,214,co2,514
$GPRMC,103440,A,5540.8018,N,1235.1902,E,4.66,70.43,290311,A***,Temp,9.5,Light,652,Mov,218,co2,511
$GPRMC,103447,A,5540.8084,N,1235.1883,E,2.02,55.98,290311,A***,Temp,9.1,Light,640,Mov,2,co2,510
$GPRMC,103501,A,5540.8149,N,1235.1778,E,3.22,329.16,290311,A*,Temp,9.7,Light,608,Mov,0,co2,509
$GPRMC,103508,A,5540.8134,N,1235.1804,E,2.37,111.72,290311,A*,Temp,9.4,Light,647,Mov,2,co2,502
$GPRMC,103515,A,5540.8183,N,1235.1914,E,4.08,33.84,290311,A**,Temp,9.7,Light,638,Mov,2,co2,506
$GPRMC,103522,A,5540.8262,N,1235.201,E,2.53,19.47,290311,A**,Temp,9.4,Light,679,Mov,0,co2,510
$GPRMC,103529,A,5540.8223,N,1235.1921,E,1.7,300.49,290311,A*,Temp,9.3,Light,673,Mov,246,co2,511
$GPRMC,103536,A,5540.8203,N,1235.1898,E,0.95,122.25,290311,A*,Temp,9.5,Light,639,Mov,246,co2,513
$GPRMC,103550,A,5540.8162,N,1235.2038,E,1.83,94.08,290311,E*,Temp,9.7,Light,652,Mov,1,co2,509
$GPRMC,103555,A,5540.816,N,1235.2083,E,1.83,94.08,290311,E*,Temp,9.5,Light,640,Mov,2,co2,518
$GPRMC,103600,A,5540.821,N,1235.2135,E,2.33,32.73,290311,A*,Temp,9.7,Light,650,Mov,219,co2,515
$GPRMC,103607,A,5540.8372,N,1235.2157,E,5.49,10.49,290311,A*,Temp,9.6,Light,644,Mov,0,co2,495
$GPRMC,103614,A,5540.8416,N,1235.2155,E,1.6,131.28,290311,A*,Temp,9.8,Light,644,Mov,2,co2,507
$GPRMC,103621,A,5540.8425,N,1235.2262,E,2.9,108.59,290311,E*,Temp,9.8,Light,633,Mov,224,co2,512
$GPRMC,103626,A,5540.8455,N,1235.2225,E,3,323.51,290311,A*,Temp,10,Light,631,Mov,2,co2,513
$GPRMC,103633,A,5540.8541,N,1235.2156,E,3.75,333.75,290311,E*,Temp,9.8,Light,669,Mov,260,co2,515
$GPRMC,103638,A,5540.8569,N,1235.2098,E,3.84,349.46,290311,A*,Temp,9.7,Light,678,Mov,2,co2,511
$GPRMC,103645,A,5540.8684,N,1235.1999,E,3.76,306.69,290311,E*,Temp,9.7,Light,678,Mov,263,co2,513
$GPRMC,103650,A,5540.864,N,1235.1973,E,2.2,286.79,290311,A*,Temp,9.5,Light,670,Mov,2,co2,511
$GPRMC,103657,A,5540.8412,N,1235.2041,E,4.64,182.31,290311,A*,Temp,9.5,Light,669,Mov,1,co2,508
$GPRMC,103704,A,5540.8369,N,1235.2011,E,0.52,233.14,290311,A*,Temp,9.5,Light,668,Mov,2,co2,511
$GPRMC,103711,A,5540.8353,N,1235.2066,E,3.91,120.27,290311,A*,Temp,9.7,Light,644,Mov,2,co2,511
$GPRMC,103718,A,5540.8347,N,1235.213,E,2.17,77.67,290311,E**,Temp,9.9,Light,667,Mov,0,co2,507
$GPRMC,103723,A,5540.8271,N,1235.2005,E,1.98,258.25,290311,A*,Temp,10.3,Light,657,Mov,2,co2,511
$GPRMC,103730,A,5540.8344,N,1235.2025,E,1.43,21.19,290311,A**,Temp,10.2,Light,663,Mov,4,co2,514
$GPRMC,103737,A,5540.8362,N,1235.2066,E,2.55,8.73,290311,E***,Temp,10.5,Light,654,Mov,0,co2,508
$GPRMC,103742,A,5540.8397,N,1235.2075,E,2.55,8.73,290311,E***,Temp,10.4,Light,650,Mov,0,co2,509
$GPRMC,103747,A,5540.8272,N,1235.2032,E,6.8,189.8,290311,A*,Temp,10.1,Light,609,Mov,230,co2,513
$GPRMC,103754,A,5540.8139,N,1235.1909,E,8.52,211.2,290311,A*,Temp,9.8,Light,640,Mov,230,co2,509
$GPRMC,103801,A,5540.8407,N,1235.1769,E,9.01,285.69,290311,E*,Temp,9.8,Light,691,Mov,232,co2,501
$GPRMC,103806,A,5540.8369,N,1235.2069,E,5.85,96.94,290311,A**,Temp,10.1,Light,681,Mov,4,co2,508
$GPRMC,103813,A,5540.8359,N,1235.213,E,1.89,74.17,290311,A**,Temp,9.6,Light,688,Mov,250,co2,503
$GPRMC,103820,A,5540.8412,N,1235.2226,E,1.62,280.59,290311,A*,Temp,9.6,Light,654,Mov,282,co2,503
$GPRMC,103827,A,5540.8449,N,1235.2192,E,0.49,305.91,290311,E*,Temp,9.6,Light,648,Mov,4,co2,497
$GPRMC,103832,A,5540.8374,N,1235.2146,E,4.13,10.23,290311,A**,Temp,9.7,Light,657,Mov,0,co2,496
$GPRMC,103839,A,5540.8389,N,1235.2155,E,3.66,38.82,290311,A**,Temp,9.4,Light,657,Mov,232,co2,497
$GPRMC,103846,A,5540.8437,N,1235.2192,E,2.2,43.08,290311,E**,Temp,9.5,Light,652,Mov,242,co2,524
$GPRMC,103851,A,5540.8371,N,1235.2038,E,6.42,189.52,290311,A*,Temp,9.6,Light,636,Mov,256,co2,526
$GPRMC,103858,A,5540.8269,N,1235.1979,E,5.74,193.75,290311,E*,Temp,9.7,Light,638,Mov,2,co2,526
$GPRMC,103903,A,5540.8192,N,1235.1946,E,5.74,193.75,290311,E*,Temp,9.7,Light,683,Mov,0,co2,522
$GPRMC,103908,A,5540.8114,N,1235.1912,E,5.74,193.75,290311,E*,Temp,9.5,Light,683,Mov,313,co2,524
$GPRMC,103913,A,5540.8061,N,1235.2299,E,7.52,181.69,290311,E*,Temp,9.7,Light,680,Mov,284,co2,530
$GPRMC,103918,A,5540.8183,N,1235.2242,E,3.79,204.37,290311,E*,Temp,9.5,Light,668,Mov,292,co2,525
$GPRMC,103923,A,5540.8293,N,1235.206,E,5.4,309.71,290311,A*,Temp,9.5,Light,591,Mov,2,co2,525
$GPRMC,103930,A,5540.8467,N,1235.1909,E,3.83,297.79,290311,A*,Temp,9.7,Light,637,Mov,228,co2,522
$GPRMC,103937,A,5540.8643,N,1235.1945,E,3.55,356.46,290311,A*,Temp,9.6,Light,642,Mov,231,co2,523
$GPRMC,103944,A,5540.8674,N,1235.1871,E,2.39,246.94,290311,A*,Temp,9.9,Light,636,Mov,2,co2,525
$GPRMC,103951,A,5540.8733,N,1235.1929,E,5.31,10.74,290311,E**,Temp,9.9,Light,642,Mov,1,co2,523
$GPRMC,103956,A,5540.8761,N,1235.2076,E,5.5,84.33,290311,A**,Temp,10,Light,679,Mov,298,co2,524
$GPRMC,104003,A,5540.8824,N,1235.2265,E,6.28,80.19,290311,E**,Temp,10,Light,674,Mov,223,co2,516
$GPRMC,104008,A,5540.886,N,1235.2315,E,3.37,51.05,290311,A**,Temp,10.1,Light,668,Mov,282,co2,525
$GPRMC,104015,A,5540.8915,N,1235.2517,E,5.9,72.08,290311,E**,Temp,9.8,Light,638,Mov,2,co2,524
$GPRMC,104020,A,5540.8345,N,1235.1937,E,13.43,223.22,290311,A*,Temp,9.7,Light,596,Mov,1,co2,520
$GPRMC,104027,A,5540.8535,N,1235.1821,E,4.97,181.89,290311,A**,Temp,9.9,Light,677,Mov,1,co2,518
$GPRMC,104034,A,5540.8386,N,1235.1936,E,9.81,157.74,290311,A**,Temp,10.5,Light,667,Mov,0,co2,520
$GPRMC,104041,A,5540.8312,N,1235.1995,E,4.31,156.59,290311,E**,Temp,10.5,Light,683,Mov,228,co2,514
$GPRMC,104046,A,5540.8444,N,1235.2203,E,4.79,56.57,290311,A***,Temp,10.5,Light,687,Mov,224,co2,512
$GPRMC,104053,A,5540.8463,N,1235.2407,E,2.22,102.27,290311,A**,Temp,10.6,Light,666,Mov,225,co2,514
$GPRMC,104100,A,5540.8384,N,1235.248,E,3.67,177.78,290311,A**,Temp,11,Light,659,Mov,0,co2,511
$GPRMC,104107,A,5540.8442,N,1235.2367,E,3.29,224.8,290311,A**,Temp,11.2,Light,656,Mov,271,co2,513
$GPRMC,104114,A,5540.849,N,1235.2284,E,1.05,289.35,290311,A**,Temp,10.6,Light,625,Mov,242,co2,518
$GPRMC,104121,A,5540.8485,N,1235.2276,E,1.08,93.35,290311,E***,Temp,10.9,Light,637,Mov,0,co2,509
$GPRMC,104126,A,5540.8487,N,1235.2262,E,1.05,38.02,290311,A***,Temp,11.2,Light,635,Mov,228,co2,518
$GPRMC,104133,A,5540.8446,N,1235.2266,E,2.95,199.58,290311,A**,Temp,11.5,Light,672,Mov,0,co2,511
$GPRMC,104140,A,5540.8455,N,1235.2231,E,0.7,270.08,290311,A**,Temp,11.3,Light,630,Mov,259,co2,515
$GPRMC,104147,A,5540.8435,N,1235.2271,E,2.1,79.26,290311,A***,Temp,11.3,Light,677,Mov,1,co2,513
$GPRMC,104154,A,5540.8435,N,1235.2351,E,2.14,28.37,290311,A***,Temp,11.5,Light,669,Mov,4,co2,510
$GPRMC,104201,A,5540.8344,N,1235.2389,E,1.75,171.53,290311,A**,Temp,11.1,Light,664,Mov,260,co2,510
$GPRMC,104208,A,5540.8304,N,1235.2424,E,2.51,177.79,290311,A**,Temp,11.1,Light,599,Mov,0,co2,502
$GPRMC,104215,A,5540.8451,N,1235.2475,E,4.69,20.86,290311,E***,Temp,10.9,Light,597,Mov,244,co2,510
$GPRMC,104220,A,5540.8429,N,1235.2548,E,2.34,29.32,290311,A***,Temp,11.4,Light,654,Mov,0,co2,505
$GPRMC,104227,A,5540.8464,N,1235.2681,E,4.19,56.01,290311,A***,Temp,11.1,Light,661,Mov,2,co2,505
$GPRMC,104234,A,5540.847,N,1235.2886,E,7.78,78.12,290311,A***,Temp,10.5,Light,634,Mov,219,co2,505
$GPRMC,104241,A,5540.8607,N,1235.3059,E,4.95,28.86,290311,A***,Temp,10.5,Light,667,Mov,223,co2,501
$GPRMC,104248,A,5540.8247,N,1235.307,E,10.31,161.21,290311,A*,Temp,10.3,Light,665,Mov,4,co2,507
$GPRMC,104255,A,5540.8067,N,1235.302,E,9.5,180.4,290311,A**,Temp,9.6,Light,659,Mov,245,co2,502
$GPRMC,104302,A,5540.7782,N,1235.2952,E,14.47,178.49,290311,E*,Temp,9.5,Light,657,Mov,2,co2,504
$GPRMC,104307,A,5540.7582,N,1235.2962,E,14.47,178.49,290311,E*,Temp,9.5,Light,664,Mov,0,co2,502
$GPRMC,104312,A,5540.8078,N,1235.3168,E,6.04,37.52,290311,A*E*,Temp,9.6,Light,662,Mov,0,co2,496
$GPRMC,104319,A,5540.8101,N,1235.3237,E,2.42,109.38,290311,A**,Temp,9.6,Light,662,Mov,0,co2,506
$GPRMC,104333,A,5540.7741,N,1235.3345,E,5.89,141.49,290311,E*,Temp,9.8,Light,647,Mov,0,co2,498
$GPRMC,104338,A,5540.7677,N,1235.3435,E,5.89,141.49,290311,E*,Temp,9.8,Light,645,Mov,217,co2,504
$GPRMC,104343,A,5540.824,N,1235.3693,E,11.61,19.07,290311,A*,Temp,9.5,Light,646,Mov,0,co2,500
$GPRMC,104350,A,5540.8009,N,1235.3652,E,1.28,63.67,290311,A**,Temp,9.5,Light,643,Mov,253,co2,502
$GPRMC,104357,A,5540.7935,N,1235.3616,E,2.62,176.47,290311,A*,Temp,9.2,Light,651,Mov,0,co2,496
$GPRMC,104404,A,5540.8071,N,1235.3808,E,3.52,75.98,290311,A**,Temp,8.9,Light,644,Mov,2,co2,504
$GPRMC,104411,A,5540.7816,N,1235.3744,E,5.99,182.67,290311,A*,Temp,9.2,Light,637,Mov,2,co2,498
$GPRMC,104418,A,5540.7808,N,1235.3904,E,4.84,142.08,290311,A*,Temp,9.7,Light,637,Mov,2,co2,500
$GPRMC,104425,A,5540.7793,N,1235.3999,E,2.97,226.44,290311,A*,Temp,9.6,Light,635,Mov,0,co2,493
$GPRMC,104432,A,5540.8071,N,1235.4101,E,6.15,27.15,290311,A**,Temp,9.6,Light,630,Mov,0,co2,493
$GPRMC,104439,A,5540.8139,N,1235.4199,E,4.69,24.2,290311,E**,Temp,9.8,Light,631,Mov,4,co2,503
$GPRMC,104444,A,5540.8165,N,1235.4359,E,5.35,74.92,290311,A**,Temp,10.1,Light,633,Mov,207,co2,498
$GPRMC,104451,A,5540.7779,N,1235.443,E,10.18,145.6,290311,A*,Temp,10.2,Light,627,Mov,0,co2,499
$GPRMC,104458,A,5540.7977,N,1235.46,E,5.42,52.91,290311,A*A*,Temp,10.5,Light,627,Mov,224,co2,499
$GPRMC,104505,A,5540.7965,N,1235.4551,E,0.84,148.21,290311,A**,Temp,10.5,Light,623,Mov,206,co2,505
$GPRMC,104512,A,5540.7604,N,1235.4472,E,10.42,164.91,290311,A*,Temp,10.2,Light,620,Mov,0,co2,512
$GPRMC,104519,A,5540.7612,N,1235.4648,E,1.64,142.19,290311,A**,Temp,10.2,Light,590,Mov,220,co2,505
$GPRMC,104526,A,5540.7521,N,1235.4618,E,3.72,178.91,290311,A**,Temp,10.2,Light,625,Mov,0,co2,504
$GPRMC,104533,A,5540.7554,N,1235.477,E,4.85,67.09,290311,A***,Temp,10.2,Light,619,Mov,244,co2,515
$GPRMC,104540,A,5540.7494,N,1235.4734,E,3.01,186.42,290311,A**,Temp,10.5,Light,619,Mov,4,co2,515
$GPRMC,104547,A,5540.7692,N,1235.4862,E,3.6,158.43,290311,A**,Temp,10.3,Light,618,Mov,0,co2,514
$GPRMC,104554,A,5540.7596,N,1235.4791,E,6.92,187.54,290311,A**,Temp,10.1,Light,590,Mov,244,co2,516
$GPRMC,104601,A,5540.7699,N,1235.5019,E,4.65,68.07,290311,A***,Temp,10.5,Light,605,Mov,193,co2,509
$GPRMC,104608,A,5540.7502,N,1235.4917,E,8.17,206.88,290311,A**,Temp,10.2,Light,596,Mov,2,co2,512
$GPRMC,104615,A,5540.7277,N,1235.474,E,11.88,203.53,290311,E*,Temp,10.5,Light,608,Mov,0,co2,504
$GPRMC,104620,A,5540.7371,N,1235.4955,E,4.27,158.59,290311,A**,Temp,10.6,Light,619,Mov,260,co2,507
$GPRMC,104627,A,5540.7336,N,1235.5116,E,5.89,166.9,290311,A**,Temp,10.5,Light,612,Mov,1,co2,508
$GPRMC,104634,A,5540.7597,N,1235.5324,E,4.94,45.49,290311,A***,Temp,10.4,Light,602,Mov,283,co2,506
$GPRMC,104641,A,5540.7358,N,1235.5334,E,5.73,139.13,290311,A**,Temp,10.5,Light,603,Mov,0,co2,508
$GPRMC,104648,A,5540.7443,N,1235.5605,E,2.96,69.76,290311,E***,Temp,10.6,Light,596,Mov,0,co2,508
$GPRMC,104653,A,5540.7558,N,1235.57,E,6.43,36.44,290311,A***,Temp,10.5,Light,593,Mov,4,co2,508
$GPRMC,104700,A,5540.7748,N,1235.58,E,8.26,21.57,290311,A***,Temp,10.3,Light,596,Mov,0,co2,508
$GPRMC,104707,A,5540.7961,N,1235.5791,E,12.21,355.06,290311,A*,Temp,10,Light,593,Mov,206,co2,506
$GPRMC,104714,A,5540.8147,N,1235.5997,E,8.74,29.31,290311,A*A*,Temp,9.8,Light,595,Mov,0,co2,500
$GPRMC,104721,A,5540.748,N,1235.5981,E,13.94,178.06,290311,A*,Temp,9.9,Light,606,Mov,2,co2,511
$GPRMC,104728,A,5540.731,N,1235.5975,E,6.89,163.57,290311,A**,Temp,10.2,Light,587,Mov,254,co2,512
$GPRMC,104735,A,5540.7251,N,1235.6048,E,6.08,159.55,290311,A**,Temp,10.2,Light,604,Mov,0,co2,507
$GPRMC,104742,A,5540.7012,N,1235.5929,E,6.86,180.33,290311,A**,Temp,10.5,Light,605,Mov,193,co2,498
$GPRMC,104749,A,5540.6841,N,1235.5935,E,3.53,157.41,290311,A**,Temp,10.3,Light,604,Mov,1,co2,505
$GPRMC,104756,A,5540.7228,N,1235.6179,E,11.16,31.41,290311,A**,Temp,9.8,Light,598,Mov,2,co2,508
$GPRMC,104803,A,5540.7417,N,1235.6533,E,6.84,56.11,290311,A***,Temp,9.7,Light,597,Mov,1,co2,506
$GPRMC,104810,A,5540.7491,N,1235.6415,E,4.04,330.84,290311,E**,Temp,9.7,Light,598,Mov,4,co2,503
$GPRMC,104815,A,5540.7563,N,1235.6409,E,3.26,7.78,290311,A*E**,Temp,9.5,Light,574,Mov,0,co2,503
$GPRMC,104822,A,5540.7608,N,1235.6494,E,2.38,357,290311,A**,Temp,9.4,Light,587,Mov,211,co2,507
$GPRMC,104829,A,5540.764,N,1235.6482,E,1.65,235.17,290311,A**,Temp,9.5,Light,584,Mov,4,co2,508
$GPRMC,104836,A,5540.7616,N,1235.6548,E,1.84,38.89,290311,A***,Temp,9.5,Light,588,Mov,233,co2,505
$GPRMC,104843,A,5540.7519,N,1235.6492,E,3.86,196.04,290311,A**,Temp,9.5,Light,588,Mov,228,co2,498
$GPRMC,104850,A,5540.7284,N,1235.6355,E,7.65,192.6,290311,A**,Temp,9.5,Light,583,Mov,322,co2,503
$GPRMC,104857,A,5540.7283,N,1235.6359,E,3.29,176.9,290311,A**,Temp,9.6,Light,587,Mov,249,co2,502
$GPRMC,104904,A,5540.7294,N,1235.6364,E,0.97,71.81,290311,A***,Temp,9.7,Light,585,Mov,4,co2,502
$GPRMC,104911,A,5540.7418,N,1235.6405,E,3.49,2.81,290311,A****,Temp,9.5,Light,582,Mov,0,co2,497
$GPRMC,104918,A,5540.7511,N,1235.636,E,2.43,6.97,290311,A****,Temp,9.5,Light,580,Mov,217,co2,500
$GPRMC,104925,A,5540.7451,N,1235.636,E,2.34,161.15,290311,A**,Temp,9.5,Light,577,Mov,270,co2,500
$GPRMC,104932,A,5540.7325,N,1235.6377,E,6.58,178.69,290311,A**,Temp,9.2,Light,577,Mov,297,co2,503
$GPRMC,104939,A,5540.7373,N,1235.6364,E,0.65,277.34,290311,A**,Temp,9.1,Light,584,Mov,195,co2,505
$GPRMC,104946,A,5540.7452,N,1235.6416,E,3.19,357.86,290311,A**,Temp,9.5,Light,578,Mov,260,co2,499
$GPRMC,104953,A,5540.7573,N,1235.6495,E,6.57,15.31,290311,A***,Temp,9.2,Light,567,Mov,201,co2,501
$GPRMC,105000,A,5540.7647,N,1235.6626,E,7.16,75.18,290311,A***,Temp,9,Light,582,Mov,4,co2,505
$GPRMC,105007,A,5540.7696,N,1235.667,E,0.72,311.93,290311,A**,Temp,8.9,Light,575,Mov,4,co2,499
$GPRMC,105014,A,5540.7541,N,1235.6675,E,3.74,156.1,290311,A**,Temp,9.1,Light,588,Mov,1,co2,501
$GPRMC,105021,A,5540.7452,N,1235.6769,E,2.59,166.32,290311,A**,Temp,9.4,Light,578,Mov,220,co2,497
$GPRMC,105028,A,5540.7384,N,1235.6604,E,1.14,266.99,290311,A**,Temp,9.1,Light,576,Mov,2,co2,501
$GPRMC,105035,A,5540.7434,N,1235.6572,E,0.7,10.59,290311,A***,Temp,8.8,Light,584,Mov,236,co2,504
$GPRMC,105042,A,5540.7516,N,1235.6502,E,2.8,353.68,290311,A**,Temp,8.8,Light,577,Mov,4,co2,499
$GPRMC,105049,A,5540.7429,N,1235.648,E,4.89,146.63,290311,A**,Temp,9,Light,586,Mov,0,co2,505
$GPRMC,105056,A,5540.7466,N,1235.6535,E,1.2,89.59,290311,A***,Temp,8.7,Light,573,Mov,0,co2,498
$GPRMC,105103,A,5540.7437,N,1235.6558,E,2.67,164.61,290311,A**,Temp,8.9,Light,530,Mov,4,co2,501
$GPRMC,105110,A,5540.7427,N,1235.6554,E,1.45,16.78,290311,A***,Temp,8.9,Light,568,Mov,4,co2,496
$GPRMC,105117,A,5540.7495,N,1235.6524,E,1.93,60.61,290311,A***,Temp,9.2,Light,562,Mov,264,co2,496
$GPRMC,105124,A,5540.7527,N,1235.6532,E,0.91,333.69,290311,A**,Temp,8.9,Light,573,Mov,188,co2,497
$GPRMC,105131,A,5540.7587,N,1235.6517,E,4.04,341.55,290311,A**,Temp,8.8,Light,569,Mov,2,co2,502
$GPRMC,105138,A,5540.7564,N,1235.6448,E,0.41,322.67,290311,A**,Temp,8.3,Light,565,Mov,2,co2,503
$GPRMC,105145,A,5540.7573,N,1235.636,E,1.35,293.67,290311,A**,Temp,8.5,Light,558,Mov,187,co2,500
$GPRMC,105152,A,5540.7583,N,1235.6318,E,1.35,293.67,290311,E**,Temp,8.8,Light,557,Mov,263,co2,503
$GPRMC,105157,A,5540.7425,N,1235.6462,E,2.91,190.39,290311,A**,Temp,8.7,Light,551,Mov,0,co2,498
$GPRMC,105204,A,5540.7481,N,1235.6468,E,1,318.06,290311,A**,Temp,8.6,Light,550,Mov,300,co2,503
$GPRMC,105211,A,5540.7512,N,1235.6448,E,0.87,85.93,290311,A***,Temp,9.2,Light,565,Mov,0,co2,499
$GPRMC,105218,A,5540.7454,N,1235.6535,E,1.74,153.29,290311,A**,Temp,8.9,Light,548,Mov,204,co2,497
$GPRMC,105225,A,5540.7392,N,1235.67,E,6.37,147.43,290311,A**,Temp,8.7,Light,565,Mov,4,co2,501
$GPRMC,105232,A,5540.7397,N,1235.6679,E,1.65,302,290311,A**,Temp,8.8,Light,346,Mov,219,co2,504
$GPRMC,105239,A,5540.7474,N,1235.6569,E,2.4,313.85,290311,A**,Temp,9.5,Light,475,Mov,2,co2,505
$GPRMC,105246,A,5540.7506,N,1235.6562,E,0.98,334.79,290311,A**,Temp,9.6,Light,126,Mov,140,co2,503
$GPRMC,105253,A,5540.7521,N,1235.6635,E,3.24,38.34,290311,A***,Temp,9.2,Light,379,Mov,1,co2,497
$GPRMC,105300,A,5540.7534,N,1235.6629,E,1.64,320.4,290311,A**,Temp,9.2,Light,469,Mov,220,co2,504
$GPRMC,105307,A,5540.7543,N,1235.6593,E,2.12,350.49,290311,E**,Temp,9.1,Light,459,Mov,202,co2,505
$GPRMC,105312,A,5540.7482,N,1235.6684,E,0.9,222.8,290311,A**,Temp,8.9,Light,439,Mov,1,co2,498
$GPRMC,105319,A,5540.7446,N,1235.663,E,2.18,266.93,290311,E**,Temp,8.7,Light,435,Mov,0,co2,502
$GPRMC,105324,A,5540.7462,N,1235.6686,E,2.76,349.29,290311,A**,Temp,9.2,Light,281,Mov,0,co2,502
$GPRMC,105331,A,5540.7421,N,1235.6693,E,3.31,119.52,290311,A**,Temp,9.8,Light,104,Mov,43,co2,499
$GPRMC,105338,A,5540.7494,N,1235.6733,E,4.07,9.29,290311,A*A**,Temp,10.3,Light,152,Mov,2,co2,499
$GPRMC,105345,A,5540.7448,N,1235.6721,E,0.21,132.93,290311,A**,Temp,10.3,Light,148,Mov,0,co2,503
$GPRMC,105352,A,5540.7456,N,1235.6754,E,1.95,93.1,290311,A***,Temp,10.7,Light,205,Mov,0,co2,501
$GPRMC,105359,A,5540.7445,N,1235.6846,E,2.49,105.18,290311,A**,Temp,10.6,Light,154,Mov,2,co2,499
$GPRMC,105406,A,5540.7351,N,1235.6909,E,7.78,171.4,290311,A**,Temp,11,Light,188,Mov,91,co2,500
$GPRMC,105413,A,5540.7235,N,1235.6965,E,3.57,137.38,290311,A**,Temp,11.2,Light,185,Mov,186,co2,501
$GPRMC,105420,A,5540.7228,N,1235.7054,E,3.06,85.93,290311,A***,Temp,11.3,Light,192,Mov,0,co2,504
$GPRMC,105427,A,5540.744,N,1235.7237,E,6.62,64.35,290311,A***,Temp,11.2,Light,204,Mov,91,co2,504
$GPRMC,105434,A,5540.7483,N,1235.7428,E,6.89,70.39,290311,A***,Temp,11.5,Light,185,Mov,115,co2,505
$GPRMC,105441,A,5540.7543,N,1235.7571,E,7.49,59.5,290311,A***,Temp,11.8,Light,197,Mov,184,co2,506
$GPRMC,105448,A,5540.7646,N,1235.7761,E,7.73,46.91,290311,E***,Temp,11.9,Light,195,Mov,216,co2,510
$GPRMC,105453,A,5540.7735,N,1235.7888,E,6.64,49.11,290311,E***,Temp,12,Light,191,Mov,213,co2,501
$GPRMC,105458,A,5540.773,N,1235.7993,E,4.53,53.5,290311,E***,Temp,12.2,Light,188,Mov,216,co2,510
$GPRMC,105503,A,5540.7802,N,1235.8066,E,7.4,36.91,290311,A***,Temp,12.4,Light,188,Mov,226,co2,510
$GPRMC,105510,A,5540.7864,N,1235.8285,E,7.31,53.61,290311,A***,Temp,12.4,Light,192,Mov,189,co2,502
$GPRMC,105517,A,5540.7793,N,1235.8406,E,2.24,86.79,290311,E***,Temp,12.4,Light,185,Mov,220,co2,506
$GPRMC,105522,A,5540.7794,N,1235.8461,E,2.24,86.79,290311,E***,Temp,12.3,Light,175,Mov,157,co2,499
$GPRMC,105527,A,5540.7796,N,1235.8515,E,2.24,86.79,290311,E***,Temp,12.4,Light,177,Mov,130,co2,498
$GPRMC,105532,A,5540.8367,N,1235.8876,E,15.67,18.45,290311,A**,Temp,12.5,Light,179,Mov,204,co2,502
$GPRMC,105539,A,5540.8619,N,1235.8944,E,12.65,11.84,290311,A**,Temp,12.4,Light,177,Mov,211,co2,497
$GPRMC,105546,A,5540.8811,N,1235.9056,E,11.62,18.63,290311,A**,Temp,12.4,Light,168,Mov,200,co2,502
$GPRMC,105553,A,5540.8934,N,1235.9162,E,4.06,28.73,290311,A***,Temp,12.4,Light,163,Mov,210,co2,501
$GPRMC,105600,A,5540.8989,N,1235.9207,E,4.04,20.14,290311,E***,Temp,12.6,Light,173,Mov,211,co2,498
$GPRMC,105605,A,5540.9041,N,1235.9241,E,4.04,20.14,290311,E***,Temp,12.5,Light,117,Mov,1,co2,490
$GPRMC,105610,A,5540.8886,N,1235.9286,E,4.58,153.76,290311,A**,Temp,12.7,Light,88,Mov,188,co2,496
$GPRMC,105617,A,5540.8921,N,1235.9426,E,3.38,143.97,290311,E**,Temp,12.9,Light,82,Mov,179,co2,499
$GPRMC,105622,A,5540.8715,N,1235.9589,E,7.25,161.91,290311,E**,Temp,13,Light,83,Mov,179,co2,494
$GPRMC,105627,A,5540.8421,N,1235.9229,E,7.13,214.18,290311,A**,Temp,12.9,Light,84,Mov,193,co2,497
$GPRMC,105634,A,5540.8657,N,1235.9253,E,3.65,1.47,290311,E*A**,Temp,13,Light,83,Mov,188,co2,497
$GPRMC,105639,A,5540.8931,N,1235.934,E,10.42,18.71,290311,A**,Temp,13.2,Light,84,Mov,0,co2,498
$GPRMC,105646,A,5540.9009,N,1235.9355,E,2.34,19.59,290311,A***,Temp,12.4,Light,544,Mov,1,co2,500
$GPRMC,105653,A,5540.8886,N,1235.9354,E,3.87,205.69,290311,A**,Temp,11.7,Light,547,Mov,210,co2,498
$GPRMC,105700,A,5540.886,N,1235.9417,E,4.33,106.87,290311,A**,Temp,10.7,Light,542,Mov,2,co2,510
$GPRMC,105707,A,5540.8972,N,1235.9734,E,8.31,59.08,290311,A***,Temp,10.2,Light,535,Mov,2,co2,505
$GPRMC,105714,A,5540.8721,N,1235.9607,E,1.56,185,290311,A**,Temp,10.5,Light,541,Mov,2,co2,505
$GPRMC,105721,A,5540.8713,N,1235.9711,E,6.36,153.33,290311,A**,Temp,9.9,Light,538,Mov,0,co2,496
$GPRMC,105728,A,5540.8748,N,1235.9828,E,2,94.11,290311,A***,Temp,9.6,Light,533,Mov,190,co2,501
$GPRMC,105735,A,5540.8851,N,1235.9959,E,2.58,101.34,290311,A**,Temp,9.7,Light,519,Mov,179,co2,499
$GPRMC,105742,A,5540.8775,N,1236.0021,E,3.95,166.97,290311,E**,Temp,9.5,Light,526,Mov,4,co2,499
$GPRMC,105747,A,5540.8722,N,1236.0043,E,3.95,166.97,290311,E**,Temp,9.4,Light,516,Mov,238,co2,498
$GPRMC,105752,A,5540.8904,N,1236.0289,E,5.75,56.57,290311,A***,Temp,9.1,Light,516,Mov,169,co2,493
$GPRMC,105759,A,5540.8774,N,1236.038,E,6.04,107.82,290311,A**,Temp,9.1,Light,523,Mov,184,co2,493
$GPRMC,105806,A,5540.8868,N,1236.0409,E,1.75,36.7,290311,A***,Temp,8.9,Light,514,Mov,210,co2,501
$GPRMC,105813,A,5540.8829,N,1236.0544,E,4.24,114.92,290311,A**,Temp,9,Light,510,Mov,2,co2,500
$GPRMC,105820,A,5540.8735,N,1236.0573,E,3.61,117.36,290311,A**,Temp,8.8,Light,532,Mov,1,co2,493
$GPRMC,105827,A,5540.867,N,1236.0698,E,5.49,127.63,290311,A**,Temp,9.2,Light,523,Mov,4,co2,502
$GPRMC,105834,A,5540.8442,N,1236.056,E,7.26,176.29,290311,A**,Temp,9.3,Light,505,Mov,224,co2,503
$GPRMC,105841,A,5540.8555,N,1236.0882,E,5.49,77.79,290311,A***,Temp,9.1,Light,525,Mov,169,co2,496
$GPRMC,105848,A,5540.8612,N,1236.1083,E,5.82,52.18,290311,A***,Temp,9,Light,536,Mov,4,co2,498
$GPRMC,105855,A,5540.8681,N,1236.124,E,5.82,52.18,290311,E***,Temp,8.5,Light,552,Mov,0,co2,498
$GPRMC,105900,A,5540.8538,N,1236.0819,E,3.55,167.39,290311,A**,Temp,8.1,Light,547,Mov,2,co2,504
$GPRMC,105907,A,5540.8448,N,1236.0678,E,7.77,225.74,290311,E**,Temp,8.1,Light,560,Mov,4,co2,508
$GPRMC,105912,A,5540.8372,N,1236.0541,E,7.77,225.74,290311,E**,Temp,7.8,Light,538,Mov,218,co2,508
$GPRMC,105917,A,5540.8475,N,1236.0561,E,2,302.96,290311,A**,Temp,8,Light,537,Mov,210,co2,512
$GPRMC,105924,A,5540.8194,N,1236.0661,E,13.74,172.96,290311,E*,Temp,8,Light,544,Mov,211,co2,513
$GPRMC,105929,A,5540.8005,N,1236.0702,E,13.74,172.96,290311,E*,Temp,7.8,Light,542,Mov,227,co2,510
$GPRMC,105934,A,5540.8297,N,1236.0407,E,6.21,278.52,290311,A**,Temp,8,Light,541,Mov,228,co2,514
$GPRMC,105941,A,5540.8292,N,1236.0555,E,3.26,126.57,290311,A**,Temp,8.2,Light,551,Mov,228,co2,506
$GPRMC,105948,A,5540.8265,N,1236.0745,E,6.35,90.43,290311,A***,Temp,8.4,Light,548,Mov,4,co2,508
$GPRMC,105955,A,5540.8219,N,1236.0949,E,5.88,120.1,290311,E**,Temp,8.5,Light,544,Mov,204,co2,518
$GPRMC,110000,A,5540.8172,N,1236.0977,E,1.28,169.41,290311,A**,Temp,8.2,Light,540,Mov,1,co2,510
$GPRMC,110007,A,5540.819,N,1236.0993,E,1.58,12.03,290311,A***,Temp,8.2,Light,536,Mov,0,co2,513
$GPRMC,110014,A,5540.8206,N,1236.0989,E,2.51,48.03,290311,A***,Temp,8,Light,514,Mov,233,co2,518
$GPRMC,110021,A,5540.8271,N,1236.1026,E,1.91,38,290311,A***,Temp,8,Light,541,Mov,204,co2,524
$GPRMC,110028,A,5540.8359,N,1236.105,E,1.62,5.31,290311,A****,Temp,8.1,Light,541,Mov,1,co2,517
$GPRMC,110035,A,5540.8388,N,1236.1073,E,2.24,23.38,290311,A***,Temp,8.1,Light,539,Mov,4,co2,522
$GPRMC,110042,A,5540.8409,N,1236.1177,E,3.87,71.42,290311,A***,Temp,7.9,Light,537,Mov,186,co2,515
$GPRMC,110049,A,5540.8477,N,1236.1239,E,3.66,3.62,290311,A****,Temp,8.2,Light,537,Mov,4,co2,519
$GPRMC,110056,A,5540.8568,N,1236.1138,E,6.87,329.62,290311,A**,Temp,8,Light,541,Mov,188,co2,520
$GPRMC,110103,A,5540.8616,N,1236.1197,E,3.89,3.68,290311,A*A**,Temp,7.8,Light,527,Mov,199,co2,520
$GPRMC,110110,A,5540.8699,N,1236.1191,E,4.1,332.57,290311,A**,Temp,8.1,Light,537,Mov,234,co2,520
$GPRMC,110117,A,5540.8737,N,1236.1231,E,3.29,20.96,290311,E***,Temp,8,Light,529,Mov,188,co2,513
$GPRMC,110122,A,5540.8779,N,1236.126,E,3.29,20.96,290311,E***,Temp,8.1,Light,529,Mov,4,co2,519
$GPRMC,110127,A,5540.8783,N,1236.1279,E,4.21,51.31,290311,A***,Temp,8,Light,539,Mov,4,co2,519
$GPRMC,110134,A,5540.8879,N,1236.1404,E,4.39,18.49,290311,A***,Temp,7.8,Light,535,Mov,211,co2,532
$GPRMC,110141,A,5540.8909,N,1236.1439,E,1.29,53.46,290311,A***,Temp,8.2,Light,529,Mov,182,co2,533
$GPRMC,110148,A,5540.8938,N,1236.1499,E,2.96,59.42,290311,A***,Temp,8.1,Light,539,Mov,2,co2,538
$GPRMC,110155,A,5540.8903,N,1236.1589,E,1.25,66.77,290311,A***,Temp,8.2,Light,528,Mov,185,co2,538
$GPRMC,110202,A,5540.8855,N,1236.1694,E,3.16,84.1,290311,A***,Temp,7.9,Light,503,Mov,265,co2,539
$GPRMC,110209,A,5540.89,N,1236.1729,E,1.86,46.62,290311,A***,Temp,8.2,Light,509,Mov,174,co2,543
$GPRMC,110216,A,5540.8948,N,1236.1874,E,3.46,64.16,290311,E***,Temp,8.2,Light,443,Mov,0,co2,546
$GPRMC,110221,A,5540.9042,N,1236.1818,E,4.4,332.9,290311,A**,Temp,7.9,Light,479,Mov,2,co2,548
$GPRMC,110228,A,5540.9066,N,1236.1986,E,4.43,63.65,290311,A***,Temp,7.5,Light,524,Mov,228,co2,543
$GPRMC,110235,A,5540.9276,N,1236.2171,E,9.5,38.83,290311,A***,Temp,7.8,Light,527,Mov,0,co2,549
$GPRMC,110242,A,5540.9087,N,1236.2262,E,6.19,161.09,290311,A**,Temp,7.7,Light,523,Mov,4,co2,549
$GPRMC,110249,A,5540.8882,N,1236.229,E,11.95,185.08,290311,A*,Temp,7.7,Light,528,Mov,0,co2,536
$GPRMC,110256,A,5540.876,N,1236.233,E,4.28,137.02,290311,A**,Temp,7.6,Light,535,Mov,2,co2,544
$GPRMC,110303,A,5540.8989,N,1236.2514,E,6.94,26.53,290311,A***,Temp,7.6,Light,539,Mov,191,co2,546
$GPRMC,110310,A,5540.9057,N,1236.2611,E,5.19,37.93,290311,E***,Temp,7.4,Light,530,Mov,1,co2,544
$GPRMC,110315,A,5540.9114,N,1236.269,E,5.19,37.93,290311,E***,Temp,7.7,Light,466,Mov,1,co2,541
$GPRMC,92514000,A,5540.8965,N,1236.2645,E,0.63,327.09,290311,A*,Temp,23.5,Light,60,Mov,4,co2,78
$GPRMC,92520000,A,5540.8961,N,1236.2583,E,1.73,264.32,290311,E*,Temp,23.5,Light,50,Mov,0,co2,75
$GPRMC,92524000,A,5540.8959,N,1236.2549,E,1.73,264.32,290311,E*,Temp,23.5,Light,56,Mov,98,co2,84
$GPRMC,92528000,A,5540.8957,N,1236.2515,E,1.73,264.32,290311,E*,Temp,23.6,Light,58,Mov,132,co2,80
$GPRMC,92540000,A,5540.9049,N,1236.242,E,7,288.24,290311,E*,Temp,23.7,Light,55,Mov,48,co2,81
$GPRMC,92544000,A,5540.9074,N,1236.229,E,7,288.24,290311,E*,Temp,23.7,Light,57,Mov,2,co2,84
$GPRMC,92548000,A,5540.9098,N,1236.216,E,7,288.24,290311,E*,Temp,23.7,Light,51,Mov,4,co2,49
$GPRMC,92608000,A,5540.9171,N,1236.3045,E,8.86,48.8,290311,A**,Temp,23.7,Light,47,Mov,0,co2,234
$GPRMC,92614000,A,5540.9198,N,1236.3197,E,3.16,67.05,290311,A**,Temp,23.7,Light,56,Mov,179,co2,0
$GPRMC,92627000,A,5540.9118,N,1236.3092,E,3.36,214.35,290311,E*,Temp,23.4,Light,13,Mov,161,co2,73
$GPRMC,92631000,A,5540.9087,N,1236.3055,E,3.36,214.35,290311,E*,Temp,23.7,Light,53,Mov,0,co2,121
$GPRMC,92635000,A,5540.9056,N,1236.3018,E,3.36,214.35,290311,E*,Temp,23.5,Light,56,Mov,1,co2,2
$GPRMC,92647000,A,5540.9186,N,1236.2651,E,2.14,237.78,290311,E*,Temp,23.6,Light,62,Mov,83,co2,227
$GPRMC,92651000,A,5540.9174,N,1236.2615,E,2.14,237.78,290311,E*,Temp,23.6,Light,59,Mov,123,co2,0
$GPRMC,92655000,A,5540.9161,N,1236.2579,E,2.14,237.78,290311,E*,Temp,23.7,Light,66,Mov,203,co2,63
$GPRMC,92710000,A,5540.8828,N,1236.2624,E,1.04,30.18,290311,A*,Temp,21.8,Light,70,Mov,0,co2,47
$GPRMC,92716000,A,5540.8879,N,1236.266,E,0.64,41.09,290311,E*,Temp,24,Light,67,Mov,5,co2,68
$GPRMC,92720000,A,5540.8884,N,1236.2669,E,0.64,41.09,290311,E*,Temp,23.9,Light,71,Mov,0,co2,78
$GPRMC,92724000,A,5540.8972,N,1236.2615,E,1.3,17.71,290311,A*,Temp,23.4,Light,63,Mov,1,co2,0
$GPRMC,92737000,A,5540.8973,N,1236.2603,E,1.39,22.41,290311,A*,Temp,24.3,Light,72,Mov,297,co2,87
$GPRMC,92750000,A,5540.9061,N,1236.2634,E,1.75,318.57,290311,A*,Temp,24.2,Light,72,Mov,53,co2,81
$GPRMC,92756000,A,5540.9018,N,1236.2587,E,0.43,309.44,290311,A*,Temp,24.1,Light,30,Mov,39,co2,33
$GPRMC,92809000,A,5540.897,N,1236.264,E,1.13,168.22,290311,A*,Temp,24.2,Light,60,Mov,4,co2,70
$GPRMC,92836000,A,5540.9003,N,1236.2747,E,1.47,43.57,290311,A*,Temp,24.1,Light,71,Mov,0,co2,80
$GPRMC,92842000,A,5540.9028,N,1236.2721,E,0.33,30.96,290311,A*,Temp,24.1,Light,51,Mov,4,co2,89
$GPRMC,92848000,A,5540.9025,N,1236.2705,E,0.5,47.7,290311,A*,Temp,24.1,Light,69,Mov,54,co2,89
$GPRMC,92854000,A,5540.8987,N,1236.2696,E,0.46,118.28,290311,A*,Temp,24.2,Light,73,Mov,86,co2,92
$GPRMC,92907000,A,5540.8945,N,1236.268,E,0.73,17.99,290311,A*,Temp,24.2,Light,71,Mov,4,co2,84
$GPRMC,92920000,A,5540.8934,N,1236.2672,E,0.63,32.24,290311,A*,Temp,24.2,Light,67,Mov,41,co2,74
$GPRMC,92933000,A,5540.8948,N,1236.2668,E,0.63,11.33,290311,A*,Temp,24.1,Light,32,Mov,250,co2,70
$GPRMC,92939000,A,5540.8954,N,1236.266,E,1.02,6.95,290311,A**,Temp,24.2,Light,70,Mov,29,co2,92
$GPRMC,92945000,A,5540.8965,N,1236.2663,E,0.48,57.83,290311,A*,Temp,24.2,Light,68,Mov,185,co2,68
$GPRMC,92951000,A,5540.8966,N,1236.2676,E,0.81,13.07,290311,A*,Temp,24.2,Light,72,Mov,0,co2,68
$GPRMC,93004000,A,5540.8957,N,1236.2642,E,0.26,351,290311,A*,Temp,24.2,Light,71,Mov,100,co2,73
$GPRMC,93031000,A,5540.8945,N,1236.2671,E,1.59,5.79,290311,A*,Temp,24.1,Light,70,Mov,64,co2,100
$GPRMC,93044000,A,5540.8982,N,1236.2672,E,1.22,179.42,290311,A*,Temp,24.2,Light,56,Mov,4,co2,98
$GPRMC,93050000,A,5540.8999,N,1236.2732,E,2.49,49.71,290311,A**,Temp,24.2,Light,44,Mov,0,co2,47
$GPRMC,93103000,A,5540.8947,N,1236.2598,E,0.26,257.69,290311,A*,Temp,24.2,Light,13,Mov,63,co2,82
$GPRMC,93109000,A,5540.8957,N,1236.2631,E,2.09,68.77,290311,A**,Temp,24.1,Light,76,Mov,28,co2,102
$GPRMC,93115000,A,5540.8946,N,1236.2651,E,0.47,41.74,290311,A**,Temp,24.2,Light,68,Mov,1,co2,87
$GPRMC,93121000,A,5540.895,N,1236.264,E,0.17,132.91,290311,A*,Temp,24.2,Light,22,Mov,1,co2,99
$GPRMC,93127000,A,5540.8977,N,1236.2644,E,0.65,3.13,290311,A*A*,Temp,24.1,Light,18,Mov,57,co2,57
$GPRMC,93140000,A,5540.8998,N,1236.2671,E,1.72,352.1,290311,A*,Temp,24.3,Light,27,Mov,51,co2,1
$GPRMC,93146000,A,5540.898,N,1236.2681,E,1.11,129.08,290311,A*,Temp,24.1,Light,65,Mov,116,co2,103
$GPRMC,93152000,A,5540.8958,N,1236.2689,E,0.5,228.42,290311,A*,Temp,24.2,Light,59,Mov,188,co2,77
$GPRMC,93158000,A,5540.8967,N,1236.2685,E,0.29,180.43,290311,A*,Temp,24.1,Light,72,Mov,160,co2,74
$GPRMC,93218000,A,5540.8967,N,1236.2694,E,0.97,164.61,290311,A*,Temp,24.2,Light,59,Mov,176,co2,83
$GPRMC,93224000,A,5540.8948,N,1236.2687,E,0.39,179.7,290311,A*,Temp,24.2,Light,71,Mov,97,co2,86
$GPRMC,93237000,A,5540.8925,N,1236.2661,E,0.45,180.71,290311,A*,Temp,24.2,Light,76,Mov,156,co2,86
$GPRMC,93243000,A,5540.8912,N,1236.2674,E,0.38,112.29,290311,A*,Temp,24.2,Light,76,Mov,169,co2,68
$GPRMC,93249000,A,5540.8909,N,1236.2682,E,0.37,33.9,290311,A**,Temp,24.2,Light,77,Mov,162,co2,80
$GPRMC,93255000,A,5540.8913,N,1236.2683,E,0.38,4.38,290311,A***,Temp,24.2,Light,77,Mov,164,co2,83
$GPRMC,93308000,A,5540.8924,N,1236.2673,E,1.48,347.27,290311,A*,Temp,24.2,Light,84,Mov,172,co2,110
$GPRMC,93321000,A,5540.8929,N,1236.2641,E,0.46,48.89,290311,A*,Temp,24.3,Light,73,Mov,169,co2,112
$GPRMC,93327000,A,5540.8918,N,1236.2696,E,1.59,166.36,290311,A*,Temp,24.3,Light,76,Mov,170,co2,89
$GPRMC,93333000,A,5540.8913,N,1236.2699,E,1.08,316.21,290311,A*,Temp,24.3,Light,74,Mov,173,co2,73
$GPRMC,93346000,A,5540.8945,N,1236.2678,E,1.58,100.14,290311,A*,Temp,24.3,Light,69,Mov,171,co2,110
$GPRMC,93359000,A,5540.8966,N,1236.2759,E,1.92,105.06,290311,A*,Temp,24.3,Light,59,Mov,171,co2,82
$GPRMC,93412000,A,5540.8932,N,1236.2842,E,1.43,109.18,290311,A*,Temp,24.3,Light,62,Mov,146,co2,87
$GPRMC,93418000,A,5540.8925,N,1236.2846,E,1.93,111.42,290311,A*,Temp,24.3,Light,58,Mov,124,co2,73
$GPRMC,93431000,A,5540.8992,N,1236.2672,E,0.84,204.55,290311,A*,Temp,24.3,Light,64,Mov,152,co2,73
$GPRMC,93437000,A,5540.8968,N,1236.2636,E,0.61,156.31,290311,A*,Temp,24.7,Light,65,Mov,140,co2,65
$GPRMC,93443000,A,5540.9001,N,1236.2661,E,0.91,90.7,290311,A**,Temp,24.3,Light,65,Mov,18,co2,93
$GPRMC,93449000,A,5540.9022,N,1236.2667,E,1.56,29.16,290311,E**,Temp,24.3,Light,71,Mov,4,co2,83
$GPRMC,93500000,A,5540.8873,N,1236.2616,E,1.5,237.8,290311,A*,Temp,24.3,Light,63,Mov,11,co2,54
$GPRMC,93506000,A,5540.892,N,1236.2706,E,1.72,163.29,290311,A*,Temp,24.2,Light,62,Mov,41,co2,86
$GPRMC,93519000,A,5540.8967,N,1236.2651,E,0.7,165.77,290311,A*,Temp,24.2,Light,10,Mov,2,co2,122
$GPRMC,93525000,A,5540.894,N,1236.2698,E,1.29,58.51,290311,A**,Temp,24.2,Light,72,Mov,75,co2,83
$GPRMC,93531000,A,5540.8947,N,1236.2727,E,0.25,100.69,290311,A*,Temp,24.2,Light,73,Mov,1,co2,86
$GPRMC,93537000,A,5540.8964,N,1236.2668,E,1.23,220.37,290311,A*,Temp,24.1,Light,54,Mov,87,co2,74
$GPRMC,93543000,A,5540.8976,N,1236.2612,E,1.4,279.68,290311,A*,Temp,24,Light,60,Mov,0,co2,80
$GPRMC,93556000,A,5540.8954,N,1236.2622,E,1.72,122.12,290311,A*,Temp,23.7,Light,35,Mov,4,co2,82
$GPRMC,93602000,A,5540.8937,N,1236.2612,E,0.6,185.28,290311,A*,Temp,23.6,Light,28,Mov,0,co2,81
$GPRMC,93616000,A,5540.8946,N,1236.2642,E,4.28,121.19,290311,A*,Temp,22.7,Light,112,Mov,2,co2,82
$GPRMC,93623000,A,5540.8838,N,1236.2747,E,5.92,146.43,290311,E*,Temp,19.8,Light,207,Mov,69,co2,81
$GPRMC,93628000,A,5540.8769,N,1236.2827,E,5.92,146.43,290311,E*,Temp,18.1,Light,202,Mov,0,co2,82
$GPRMC,93637000,A,5540.9071,N,1236.2573,E,1.39,252.89,290311,A*,Temp,16.4,Light,501,Mov,0,co2,82
$GPRMC,93650000,A,5540.9041,N,1236.2455,E,1.85,294.94,290311,E*,Temp,14.4,Light,778,Mov,2,co2,76
$GPRMC,93654000,A,5540.9093,N,1236.2614,E,7.79,64.64,290311,A**,Temp,13.5,Light,761,Mov,2,co2,75
$GPRMC,93700000,A,5540.914,N,1236.2671,E,2.82,42.97,290311,E**,Temp,13.1,Light,674,Mov,4,co2,82
$GPRMC,93711000,A,5540.9091,N,1236.256,E,0.26,92.7,290311,A*,Temp,13.1,Light,659,Mov,0,co2,77
$GPRMC,93725000,A,5540.9112,N,1236.2542,E,2.2,33.74,290311,A*,Temp,13.6,Light,506,Mov,0,co2,81
$GPRMC,93739000,A,5540.9083,N,1236.2548,E,0.71,116.33,290311,A*,Temp,14.4,Light,751,Mov,2,co2,76
$GPRMC,93759000,A,5540.9047,N,1236.259,E,1.22,161.48,290311,A*,Temp,14.1,Light,638,Mov,2,co2,76
$GPRMC,93812000,A,5540.9068,N,1236.256,E,3.38,38.34,290311,A*,Temp,12.1,Light,531,Mov,0,co2,78
$GPRMC,93819000,A,5540.9081,N,1236.2572,E,0.68,165.78,290311,A*,Temp,334.9,Light,526,Mov,186,co2,75
$GPRMC,93834000,A,5540.9062,N,1236.2477,E,3.38,212.29,290311,A*,Temp,11.8,Light,461,Mov,0,co2,76
$GPRMC,93840000,A,5540.9067,N,1236.2535,E,1.17,99.46,290311,A**,Temp,12.7,Light,518,Mov,301,co2,82
$GPRMC,93854000,A,5540.9048,N,1236.2578,E,1.62,193.82,290311,A*,Temp,12.6,Light,724,Mov,0,co2,73
$GPRMC,93900000,A,5540.9023,N,1236.2587,E,1.47,89.03,290311,A**,Temp,12.1,Light,746,Mov,1,co2,77
$GPRMC,93914000,A,5540.9056,N,1236.2585,E,3.45,65.83,290311,A*,Temp,12.3,Light,690,Mov,2,co2,77
$GPRMC,93920000,A,5540.9033,N,1236.2566,E,0.73,279.57,290311,A*,Temp,12.4,Light,726,Mov,0,co2,84
$GPRMC,93927000,A,5540.904,N,1236.26,E,0.89,74.01,290311,A**,Temp,12.1,Light,509,Mov,1,co2,82
$GPRMC,93941000,A,5540.9056,N,1236.2512,E,2.59,203.6,290311,A*,Temp,11.5,Light,513,Mov,0,co2,71
$GPRMC,93948000,A,5540.9105,N,1236.2554,E,4.62,22.89,290311,A**,Temp,10.7,Light,519,Mov,0,co2,82
$GPRMC,93955000,A,5540.8991,N,1236.257,E,1.55,54.49,290311,A**,Temp,11.4,Light,519,Mov,198,co2,77
$GPRMC,94002000,A,5540.9061,N,1236.2567,E,0.56,344.76,290311,A*,Temp,11.6,Light,479,Mov,271,co2,76
$GPRMC,94009000,A,5540.905,N,1236.259,E,2.39,62.15,290311,A**,Temp,11.6,Light,412,Mov,276,co2,79
$GPRMC,94015000,A,5540.902,N,1236.2654,E,3.36,97.6,290311,A**,Temp,11.2,Light,537,Mov,2,co2,73
$GPRMC,94022000,A,5540.9049,N,1236.2588,E,0.59,35.34,290311,A**,Temp,11.5,Light,506,Mov,240,co2,75
$GPRMC,94043000,A,5540.9056,N,1236.262,E,1.47,71.6,290311,A*,Temp,11.1,Light,749,Mov,304,co2,77
$GPRMC,94057000,A,5540.9022,N,1236.2557,E,2.42,245.44,290311,A*,Temp,11,Light,696,Mov,334,co2,76
$GPRMC,94111000,A,5540.9045,N,1236.2553,E,0.7,345.5,290311,A*,Temp,10.1,Light,555,Mov,0,co2,81
$GPRMC,94118000,A,5540.9014,N,1236.2483,E,2.44,210.72,290311,A*,Temp,10.8,Light,560,Mov,212,co2,82
$GPRMC,94132000,A,5540.9001,N,1236.2542,E,0.36,197.02,290311,A*,Temp,11,Light,678,Mov,294,co2,77
$GPRMC,94139000,A,5540.9017,N,1236.2524,E,1.77,325.03,290311,A*,Temp,11.4,Light,735,Mov,0,co2,84
$GPRMC,94145000,A,5540.901,N,1236.2585,E,0.51,37.29,290311,A**,Temp,11.8,Light,741,Mov,402,co2,75
$GPRMC,94152000,A,5540.9026,N,1236.2608,E,0.52,231.38,290311,A*,Temp,12.4,Light,733,Mov,256,co2,82
$GPRMC,94159000,A,5540.9013,N,1236.2581,E,0.54,203.56,290311,A*,Temp,13.1,Light,735,Mov,329,co2,77
$GPRMC,94205000,A,5540.9049,N,1236.2626,E,8.18,33.64,290311,A**,Temp,10.6,Light,639,Mov,253,co2,82
$GPRMC,94212000,A,5540.8983,N,1236.2561,E,3.16,217.61,290311,A*,Temp,12,Light,736,Mov,5,co2,85
$GPRMC,94219000,A,5540.9019,N,1236.253,E,1.36,240.74,290311,A*,Temp,9.1,Light,589,Mov,2,co2,79
$GPRMC,94225000,A,5540.899,N,1236.2527,E,2.55,205.19,290311,A*,Temp,10.2,Light,556,Mov,2,co2,73
$GPRMC,94232000,A,5540.8956,N,1236.249,E,3.14,213.41,290311,A*,Temp,10.5,Light,547,Mov,2,co2,73
$GPRMC,94246000,A,5540.8849,N,1236.2384,E,2.58,214.21,290311,A*,Temp,9.8,Light,609,Mov,0,co2,81
$GPRMC,94253000,A,5540.8778,N,1236.233,E,2.17,225.61,290311,A*,Temp,10.1,Light,568,Mov,0,co2,82
$GPRMC,94321000,A,5540.8827,N,1236.2119,E,2.39,258.23,290311,A*,Temp,10,Light,521,Mov,0,co2,84
$GPRMC,94328000,A,5540.8847,N,1236.2048,E,1.26,263.72,290311,A*,Temp,9.8,Light,548,Mov,2,co2,79
$GPRMC,94335000,A,5540.8888,N,1236.1951,E,3.04,312.81,290311,A*,Temp,10.1,Light,569,Mov,0,co2,84
$GPRMC,94349000,A,5540.8888,N,1236.1771,E,3.14,251.91,290311,A*,Temp,9.9,Light,760,Mov,272,co2,82
$GPRMC,94402000,A,5540.8916,N,1236.1634,E,1.86,265.93,290311,A*,Temp,8.9,Light,540,Mov,1,co2,77
$GPRMC,94409000,A,5540.8962,N,1236.16,E,1.55,283.7,290311,A*,Temp,8.6,Light,581,Mov,2,co2,77
$GPRMC,94415000,A,5540.8956,N,1236.1524,E,4.16,294.1,290311,A*,Temp,8.3,Light,600,Mov,1,co2,80
$GPRMC,94422000,A,5540.8804,N,1236.148,E,8.24,180.51,290311,A*,Temp,8.4,Light,592,Mov,0,co2,90
$GPRMC,94429000,A,5540.8776,N,1236.151,E,2.03,185.14,290311,A*,Temp,8.3,Light,595,Mov,4,co2,85
$GPRMC,94443000,A,5540.8728,N,1236.1402,E,3.56,346.09,290311,A*,Temp,8.2,Light,585,Mov,2,co2,80
$GPRMC,94450000,A,5540.8622,N,1236.1372,E,3.27,229.34,290311,A*,Temp,8.5,Light,571,Mov,4,co2,80
$GPRMC,94457000,A,5540.8575,N,1236.1328,E,5.01,195.26,290311,A*,Temp,8.2,Light,584,Mov,0,co2,77
$GPRMC,94504000,A,5540.8503,N,1236.1332,E,3.42,178.24,290311,A*,Temp,8,Light,566,Mov,4,co2,70
$GPRMC,94510000,A,5540.8501,N,1236.122,E,3.57,204.39,290311,A*,Temp,8,Light,570,Mov,2,co2,79
$GPRMC,94517000,A,5540.8516,N,1236.1175,E,2.24,221.66,290311,A*,Temp,7.9,Light,555,Mov,0,co2,84
$GPRMC,94524000,A,5540.8419,N,1236.115,E,4.15,178.15,290311,A*,Temp,8,Light,561,Mov,0,co2,83
$GPRMC,94530000,A,5540.84,N,1236.1115,E,2.45,218.8,290311,A*,Temp,7.8,Light,561,Mov,2,co2,74
$GPRMC,94537000,A,5540.8314,N,1236.1074,E,4.52,202.75,290311,A*,Temp,7.6,Light,554,Mov,0,co2,79
$GPRMC,94544000,A,5540.8304,N,1236.1035,E,1.89,69.06,290311,A**,Temp,7.7,Light,562,Mov,2,co2,77
$GPRMC,94557000,A,5540.8255,N,1236.0921,E,1.18,300.88,290311,A*,Temp,7.9,Light,584,Mov,0,co2,71
$GPRMC,94604000,A,5540.8221,N,1236.0875,E,3.01,244.5,290311,A*,Temp,8,Light,617,Mov,1,co2,80
$GPRMC,94610000,A,5540.8229,N,1236.0792,E,1.6,265.02,290311,A*,Temp,8.1,Light,614,Mov,1,co2,82
$GPRMC,94624000,A,5540.8261,N,1236.0642,E,2.23,307.64,290311,A*,Temp,7.9,Light,588,Mov,1,co2,72
$GPRMC,94630000,A,5540.8287,N,1236.055,E,1.94,301.34,290311,A*,Temp,7.7,Light,611,Mov,2,co2,79
$GPRMC,94637000,A,5540.8297,N,1236.0462,E,3.11,277.31,290311,A*,Temp,7.8,Light,657,Mov,229,co2,86
$GPRMC,94644000,A,5540.8316,N,1236.0386,E,1.73,331.66,290311,A*,Temp,7.7,Light,617,Mov,0,co2,92
$GPRMC,94650000,A,5540.834,N,1236.0334,E,1.12,324.33,290311,A*,Temp,8.1,Light,597,Mov,2,co2,79
$GPRMC,94657000,A,5540.8375,N,1236.0261,E,2.82,286.94,290311,A*,Temp,8,Light,612,Mov,0,co2,86
$GPRMC,94704000,A,5540.8383,N,1236.0165,E,2.7,289.93,290311,A*,Temp,7.4,Light,590,Mov,2,co2,77
$GPRMC,94710000,A,5540.8398,N,1236.0089,E,1.71,301.45,290311,A*,Temp,8,Light,580,Mov,0,co2,83
$GPRMC,94745000,A,5540.8519,N,1235.9716,E,2.42,294.56,290311,A*,Temp,8.2,Light,608,Mov,0,co2,86
$GPRMC,94752000,A,5540.8537,N,1235.9629,E,1.76,224.26,290311,A*,Temp,7.8,Light,628,Mov,0,co2,79
$GPRMC,94806000,A,5540.8606,N,1235.9568,E,2.54,2.54,290311,A*,Temp,7.7,Light,580,Mov,0,co2,86
$GPRMC,94813000,A,5540.8651,N,1235.9583,E,3.87,3.37,290311,A*,Temp,7.9,Light,598,Mov,1,co2,82
$GPRMC,94820000,A,5540.8707,N,1235.9596,E,2.74,359.72,290311,A*,Temp,7.8,Light,579,Mov,235,co2,90
$GPRMC,94827000,A,5540.874,N,1235.9625,E,1.2,56.45,290311,A**,Temp,8,Light,607,Mov,4,co2,75
$GPRMC,94834000,A,5540.8767,N,1235.9652,E,2.03,15.01,290311,A**,Temp,8.4,Light,686,Mov,2,co2,88
$GPRMC,94840000,A,5540.8821,N,1235.9665,E,3.93,359.18,290311,A*,Temp,8.8,Light,605,Mov,0,co2,82
$GPRMC,94847000,A,5540.8868,N,1235.9665,E,1.56,9.45,290311,A*A*,Temp,9.4,Light,642,Mov,0,co2,81
$GPRMC,94854000,A,5540.8916,N,1235.9688,E,2.34,22.79,290311,A**,Temp,8.9,Light,618,Mov,1,co2,79
$GPRMC,94906000,A,5540.8973,N,1235.9671,E,5.09,87.65,290311,A**,Temp,9.7,Light,605,Mov,317,co2,87
$GPRMC,94913000,A,5540.8969,N,1235.9672,E,1.43,0.11,290311,A***,Temp,9.5,Light,608,Mov,417,co2,92
$GPRMC,94920000,A,5540.8961,N,1235.9681,E,1.22,97.75,290311,A**,Temp,9.5,Light,589,Mov,2,co2,89
$GPRMC,94940000,A,5540.9002,N,1235.965,E,0.67,264.6,290311,A*,Temp,9,Light,571,Mov,2,co2,89
$GPRMC,94946000,A,5540.8994,N,1235.9661,E,0.54,245.02,290311,A*,Temp,9,Light,626,Mov,2,co2,89
$GPRMC,94953000,A,5540.8963,N,1235.9654,E,0.98,170.09,290311,A*,Temp,8.6,Light,567,Mov,2,co2,85
$GPRMC,95000000,A,5540.8991,N,1235.9636,E,0.81,294.06,290311,A*,Temp,8.4,Light,538,Mov,194,co2,85
$GPRMC,95027000,A,5540.9004,N,1235.9649,E,0.17,81.66,290311,A*,Temp,8.5,Light,603,Mov,1,co2,93
$GPRMC,95034000,A,5540.8996,N,1235.9629,E,0.8,108.7,290311,A*,Temp,8.2,Light,595,Mov,0,co2,92
$GPRMC,95048000,A,5540.8992,N,1235.9688,E,1.82,59.27,290311,A*,Temp,8.2,Light,569,Mov,2,co2,89
$GPRMC,95109000,A,5540.9011,N,1235.953,E,0.86,130.09,290311,A*,Temp,9.4,Light,606,Mov,1,co2,98
